{
  "locations": [
    {
      "city": "HOUSTON",
      "image": "https://media.graphassets.com/eFPakxBNQiGrykN93dEQ",
      "label": "Micheladas El Guero #1",
      "state": "TX",
      "address": "10405 AIRLINE DR",
      "latitude": 29.9064731,
      "longitude": -95.4024412,
      "googleMapLink": "https://maps.google.com/?q=10405+AIRLINE+DR+HOUSTON"
    },
    {
      "city": "HOUSTON",
      "image": "https://media.graphassets.com/eFPakxBNQiGrykN93dEQ",
      "label": "Micheladas El Guero #2",
      "state": "TX",
      "address": "7614 LYONS AVE",
      "latitude": 29.7764022,
      "longitude": -95.29072,
      "googleMapLink": "https://maps.google.com/?q=7614+LYONS+AVE+HOUSTON"
    },
    {
      "city": "HOUSTON",
      "image": "https://media.graphassets.com/eFPakxBNQiGrykN93dEQ",
      "label": "Micheladas El Guero #3",
      "state": "TX",
      "address": "1202 HOUSTON BLVD SOUTH",
      "latitude": 29.6641248,
      "longitude": -95.237242,
      "googleMapLink": "https://maps.google.com/?q=1202+HOUSTON+BLVD+SOUTH+HOUSTON"
    },
    {
      "city": "HOUSTON",
      "image": "https://media.graphassets.com/eFPakxBNQiGrykN93dEQ",
      "label": "Micheladas El Guero #4",
      "state": "TX",
      "address": "10010 LAPORTE FWY",
      "latitude": 29.7052343,
      "longitude": -95.2453252,
      "googleMapLink": "https://maps.google.com/?q=10010+LAPORTE+FWY+HOUSTON"
    },
    {
      "city": "HOUSTON",
      "image": "https://media.graphassets.com/eFPakxBNQiGrykN93dEQ",
      "label": "Micheladas El Guero #5",
      "state": "TX",
      "address": "1301 FEDERAL RD",
      "latitude": 29.7668979,
      "longitude": -95.2128838,
      "googleMapLink": "https://maps.google.com/?q=1301+FEDERAL+RD+HOUSTON"
    },
    {
      "city": "HOUSTON",
      "image": "https://media.graphassets.com/eFPakxBNQiGrykN93dEQ",
      "label": "Micheladas El Guero #6",
      "state": "TX",
      "address": "10658 MONROE RD",
      "latitude": 29.6113245,
      "longitude": -95.2670696,
      "googleMapLink": "https://maps.google.com/?q=10658+MONROE+RD+HOUSTON"
    },
    {
      "city": "PASADENA",
      "image": "https://media.graphassets.com/eFPakxBNQiGrykN93dEQ",
      "label": "Micheladas El Guero #7",
      "state": "TX",
      "address": "3821 RED BLUFF BLTWY 8",
      "latitude": 29.6842948,
      "longitude": -95.1550239,
      "googleMapLink": "https://maps.google.com/?q=3821+RED+BLUFF+BLTWY+8+PASADENA"
    },
    {
      "city": "PASADENA",
      "image": "https://media.graphassets.com/eFPakxBNQiGrykN93dEQ",
      "label": "Micheladas El Guero #8",
      "state": "TX",
      "address": "4213 LA VISTA RD",
      "latitude": 29.6591286,
      "longitude": -95.1790082,
      "googleMapLink": "https://maps.google.com/?q=4213+LA+VISTA+RD+PASADENA"
    },
    {
      "city": "HOUSTON",
      "image": "https://media.graphassets.com/eFPakxBNQiGrykN93dEQ",
      "label": "Micheladas El Guero #9",
      "state": "TX",
      "address": "13403 TOMBALL PKWY 249",
      "latitude": 29.9155671,
      "longitude": -95.4883821,
      "googleMapLink": "https://maps.google.com/?q=13403+TOMBALL+PKWY+249+HOUSTON"
    },
    {
      "city": "PASADENA",
      "image": "https://media.graphassets.com/eFPakxBNQiGrykN93dEQ",
      "label": "Micheladas El Guero #10",
      "state": "TX",
      "address": "302 W SOUTHMORE",
      "latitude": 29.6910665,
      "longitude": -95.21414,
      "googleMapLink": "https://maps.google.com/?q=302+W+SOUTHMORE+PASADENA"
    },
    {
      "city": "PEARLAND",
      "image": "https://media.graphassets.com/eFPakxBNQiGrykN93dEQ",
      "label": "Micheladas El Guero #11",
      "state": "TX",
      "address": "333 FM 521RD",
      "latitude": 29.581296,
      "longitude": -95.4313377,
      "googleMapLink": "https://maps.google.com/?q=333+FM+521RD+PEARLAND"
    },
    {
      "city": "HOUSTON",
      "image": "https://media.graphassets.com/eFPakxBNQiGrykN93dEQ",
      "label": "Micheladas El Guero #12",
      "state": "TX",
      "address": "1102 BRODWAY ST",
      "latitude": 29.7152119,
      "longitude": -95.2788663,
      "googleMapLink": "https://maps.google.com/?q=1102+BRODWAY+ST+HOUSTON"
    },
    {
      "city": "PASADENA",
      "image": "https://media.graphassets.com/eFPakxBNQiGrykN93dEQ",
      "label": "Micheladas El Guero #13",
      "state": "TX",
      "address": "425 PASADENA BLVD",
      "latitude": 29.7058361,
      "longitude": -95.2007418,
      "googleMapLink": "https://maps.google.com/?q=425+PASADENA+BLVD+PASADENA"
    },
    {
      "city": "HOUSTON",
      "image": "https://media.graphassets.com/eFPakxBNQiGrykN93dEQ",
      "label": "Micheladas El Guero #14",
      "state": "TX",
      "address": "3635 ALDINE MAIL RD",
      "latitude": 29.9029668,
      "longitude": -95.3368103,
      "googleMapLink": "https://maps.google.com/?q=3635+ALDINE+MAIL+RD+HOUSTON"
    },
    {
      "city": "HOUSTON",
      "image": "https://media.graphassets.com/eFPakxBNQiGrykN93dEQ",
      "label": "Micheladas El Guero #15",
      "state": "TX",
      "address": "1920 WIRT RD",
      "latitude": 29.8064606,
      "longitude": -95.484186,
      "googleMapLink": "https://maps.google.com/?q=1920+WIRT+RD+HOUSTON"
    },
    {
      "city": "BAYTOWN",
      "image": "https://media.graphassets.com/eFPakxBNQiGrykN93dEQ",
      "label": "Micheladas El Guero #16",
      "state": "TX",
      "address": "2829 N MAIN ST",
      "latitude": 29.7532823,
      "longitude": -94.9645236,
      "googleMapLink": "https://maps.google.com/?q=2829+N+MAIN+ST+BAYTOWN"
    },
    {
      "city": "PORTER",
      "image": "https://media.graphassets.com/eFPakxBNQiGrykN93dEQ",
      "label": "Micheladas El Guero #17",
      "state": "TX",
      "address": "24259 FM 1314 RD",
      "latitude": 30.1051154,
      "longitude": -95.2445385,
      "googleMapLink": "https://maps.google.com/?q=24259+FM+1314+RD+PORTER"
    },
    {
      "city": "HOUSTON",
      "image": "https://media.graphassets.com/eFPakxBNQiGrykN93dEQ",
      "label": "Micheladas El Guero #18",
      "state": "TX",
      "address": "9602 SOUTHWEST FREEWAY",
      "latitude": 29.6754135,
      "longitude": -95.5434672,
      "googleMapLink": "https://maps.google.com/?q=9602+SOUTHWEST+FREEWAY+HOUSTON"
    },
    {
      "city": "CROSBY",
      "image": "https://media.graphassets.com/eFPakxBNQiGrykN93dEQ",
      "label": "Micheladas El Guero #19",
      "state": "TX",
      "address": "1927 GULF PUMP RD",
      "latitude": 29.8759771,
      "longitude": -95.0906429,
      "googleMapLink": "https://maps.google.com/?q=1927+GULF+PUMP+RD+CROSBY"
    },
    {
      "city": "HOUSTON",
      "image": "https://media.graphassets.com/eFPakxBNQiGrykN93dEQ",
      "label": "Micheladas El Guero #20",
      "state": "TX",
      "address": "11850 TIDWELL RD",
      "latitude": 29.8489839,
      "longitude": -95.2240302,
      "googleMapLink": "https://maps.google.com/?q=11850+TIDWELL+RD+HOUSTON"
    },
    {
      "city": "HOUSTON",
      "image": "https://media.graphassets.com/eFPakxBNQiGrykN93dEQ",
      "label": "Micheladas El Guero #21",
      "state": "TX",
      "address": "6835 E MOUNT HOUSTON",
      "latitude": 29.8917854,
      "longitude": -95.2880732,
      "googleMapLink": "https://maps.google.com/?q=6835+E+MOUNT+HOUSTON+HOUSTON"
    },
    {
      "city": "CHANNELVIEW",
      "image": "https://media.graphassets.com/eFPakxBNQiGrykN93dEQ",
      "label": "Micheladas El Guero #22",
      "state": "TX",
      "address": "403 DELL DALE ST",
      "latitude": 29.7789626,
      "longitude": -95.1390021,
      "googleMapLink": "https://maps.google.com/?q=403+DELL+DALE+ST+CHANNELVIEW"
    },
    {
      "city": "AUSTIN",
      "image": "https://media.graphassets.com/eFPakxBNQiGrykN93dEQ",
      "label": "Micheladas El Guero #23",
      "state": "TX",
      "address": "2300 E BEN WHITE BLVD",
      "latitude": 30.2163915,
      "longitude": -97.7382861,
      "googleMapLink": "https://maps.google.com/?q=2300+E+BEN+WHITE+BLVD+AUSTIN"
    },
    {
      "city": "HOUSTON",
      "image": "https://media.graphassets.com/eFPakxBNQiGrykN93dEQ",
      "label": "Micheladas El Guero #24",
      "state": "TX",
      "address": "2490 S WAYSIDE DR",
      "latitude": 29.7136762,
      "longitude": -95.316448,
      "googleMapLink": "https://maps.google.com/?q=2490+S+WAYSIDE+DR+HOUSTON"
    },
    {
      "city": "HOUSTON",
      "image": "https://media.graphassets.com/eFPakxBNQiGrykN93dEQ",
      "label": "Micheladas El Guero #25",
      "state": "TX",
      "address": "733 NORTH WEST",
      "latitude": 29.812202,
      "longitude": -95.4115655,
      "googleMapLink": "https://maps.google.com/?q=733+NORTH+WEST+HOUSTON"
    },
    {
      "city": "HOUSTON",
      "image": "https://media.graphassets.com/eFPakxBNQiGrykN93dEQ",
      "label": "Micheladas El Guero #26",
      "state": "TX",
      "address": "9201 NORTH LOOP EAST",
      "latitude": 29.791413,
      "longitude": -95.266833,
      "googleMapLink": "https://maps.google.com/?q=9201+NORTH+LOOP+EAST+HOUSTON"
    },
    {
      "city": "HOUSTON",
      "image": "https://media.graphassets.com/eFPakxBNQiGrykN93dEQ",
      "label": "Micheladas El Guero #27",
      "state": "TX",
      "address": "1653 GESSNER RD",
      "latitude": 29.8021948,
      "longitude": -95.5452613,
      "googleMapLink": "https://maps.google.com/?q=1653+GESSNER+RD+HOUSTON"
    },
    {
      "city": "HOUSTON",
      "image": "https://media.graphassets.com/eFPakxBNQiGrykN93dEQ",
      "label": "Micheladas El Guero #28",
      "state": "TX",
      "address": "8305 ALMEDA GENOA RD",
      "latitude": 29.6266323,
      "longitude": -95.2704935,
      "googleMapLink": "https://maps.google.com/?q=8305+ALMEDA+GENOA+RD+HOUSTON"
    },
    {
      "city": "HOUSTON",
      "image": "https://media.graphassets.com/eFPakxBNQiGrykN93dEQ",
      "label": "Micheladas El Guero #29",
      "state": "TX",
      "address": "5411 EAST SAM HOUSTON PKWY S",
      "latitude": 29.6297863,
      "longitude": -95.1699532,
      "googleMapLink": "https://maps.google.com/?q=5411+EAST+SAM+HOUSTON+PKWY+S+HOUSTON"
    },
    {
      "city": "HOUSTON",
      "image": "https://media.graphassets.com/eFPakxBNQiGrykN93dEQ",
      "label": "Micheladas El Guero #30",
      "state": "TX",
      "address": "15625 SOUTH POST OAK",
      "latitude": 29.59877,
      "longitude": -95.464837,
      "googleMapLink": "https://maps.google.com/?q=15625+SOUTH+POST+OAK+HOUSTON"
    },
    {
      "city": "HOUSTON",
      "image": "https://media.graphassets.com/eFPakxBNQiGrykN93dEQ",
      "label": "Micheladas El Guero #31",
      "state": "TX",
      "address": "12671 VETERANS MEMORIAL DR",
      "latitude": 29.9717526,
      "longitude": -95.4867366,
      "googleMapLink": "https://maps.google.com/?q=12671+VETERANS+MEMORIAL+DR+HOUSTON"
    },
    {
      "city": "KATY",
      "image": "https://media.graphassets.com/eFPakxBNQiGrykN93dEQ",
      "label": "Micheladas El Guero #32",
      "state": "TX",
      "address": "6841 N FRY RD",
      "latitude": 29.8759583,
      "longitude": -95.7240168,
      "googleMapLink": "https://maps.google.com/?q=6841+N+FRY+RD+KATY"
    },
    {
      "city": "PHARR",
      "image": "https://media.graphassets.com/eFPakxBNQiGrykN93dEQ",
      "label": "Micheladas El Guero #33",
      "state": "TX",
      "address": "6911 S JACKSON RD34",
      "latitude": 26.1300719,
      "longitude": -98.215017,
      "googleMapLink": "https://maps.google.com/?q=6911+S+JACKSON+RD+PHARR"
    },
    {
      "city": "AUSTIN",
      "image": "https://media.graphassets.com/eFPakxBNQiGrykN93dEQ",
      "label": "Micheladas El Guero #35",
      "state": "TX",
      "address": "9433 PARKFIELD DR",
      "latitude": 30.3683064,
      "longitude": -97.7051922,
      "googleMapLink": "https://maps.google.com/?q=9433+PARKFIELD+DR+AUSTIN"
    }
  ]
}
